port_id,name,latitude,longitude,berth_count
PORT001,東京港,35.6295,139.7431,3
PORT002,横浜港,35.4437,139.6380,4
PORT003,大阪港,34.6518,135.4222,2
PORT004,神戸港,34.6901,135.1956,3
PORT005,名古屋港,35.0839,136.8849,2
PORT006,千葉港,35.6074,140.1061,2
PORT007,清水港,35.0180,138.4897,1
PORT008,四日市港,34.9667,136.6167,2
